{
  "destinations": [
    {
      "id": "a7c2e4f8-9b1d-4e3a-8c5f-2d6b9a1e4f7c",
      "address": "Københavnsvej 106, 4600 Køge, Denmark",
      "lat": 55.4651187,
      "lng": 12.1672331
    },
    {
      "id": "b3f5d1a8-7e2c-4b9d-a1f6-8c3e5b7d9a2f",
      "address": "Himmelev Bygade 53, 4000 Roskilde, Denmark",
      "lat": 55.65613,
      "lng": 12.10214
    },
    {
      "id": "c8d4f2b9-1a6e-4d7c-9f3b-5e8a2d1c6f4b",
      "address": "Slotsgade 52, 3400 Hillerød, Denmark",
      "lat": 55.93206,
      "lng": 12.3023
    },
    {
      "id": "d1e7a3c5-4b8f-4e2d-a9c7-6f1b3d8e5a2c",
      "address": "Stengade 59, 3000 Helsingør, Denmark",
      "lat": 56.03534,
      "lng": 12.6133
    },
    {
      "id": "d3a5f8b2-1c6e-4d9f-b7c4-8e2a5d1f3b9c",
      "address": "Algade 86, 4760 Vordingborg, Denmark",
      "lat": 55.00898,
      "lng": 11.90822
    },
    {
      "id": "e8b2d4f6-9a3c-4e1d-c5f8-7b9a1e4d2c6f",
      "address": "Nørrebrogade 100, 2200 København, Denmark",
      "lat": 55.6942484,
      "lng": 12.5492471
    },
    {
      "id": "f1c9a5d3-8e7b-4f2c-9d6a-4b1e8c3f5a2d",
      "address": "Gammel Kongevej 90, 1850 Frederiksberg, Denmark",
      "lat": 55.67756,
      "lng": 12.54332
    },
    {
      "id": "a6d8f2b4-7c1e-4a9d-b5f3-8e2c9a1d4f6b",
      "address": "Gentoftegade 33, 2820 Gentofte, Denmark",
      "lat": 55.74838,
      "lng": 12.54716
    },
    {
      "id": "b2f7c9a1-8d4e-4b6f-a3c8-5e9d1b2f4c7a",
      "address": "Lyngby Hovedgade 50, 2800 Kongens Lyngby, Denmark",
      "lat": 55.76993,
      "lng": 12.50346
    },
    {
      "id": "c9a4d1f5-6e8b-4c3d-9f7a-2b5e8c1d4a6f",
      "address": "Usserød Kongevej 35, 2970 Hørsholm, Denmark",
      "lat": 55.88939,
      "lng": 12.49372
    },
    {
      "id": "d5f3b8a2-9c1e-4d7f-b6a4-8e2d9c5f1a3b",
      "address": "Taastrup Hovedgade 80, 2630 Taastrup, Denmark",
      "lat": 55.65215,
      "lng": 12.29824
    },
    {
      "id": "e1a6c9f4-8d2b-4e5c-a7f9-3b1d8e4c6a2f",
      "address": "Hundige Centervej 1, 2670 Greve, Denmark",
      "lat": 55.59265,
      "lng": 12.35532
    },
    {
      "id": "f8b3d5a1-7e9c-4f2d-b4a6-9c1e5d8f2a3b",
      "address": "Centrumgaden 7, 2750 Ballerup, Denmark",
      "lat": 55.7297,
      "lng": 12.36199
    },
    {
      "id": "a4c7f9d2-6b1e-4a8c-d5f3-9e2a8b4c1d6f",
      "address": "Jernbanegade 42, 4690 Haslev, Denmark",
      "lat": 55.32626,
      "lng": 11.96347
    },
    {
      "id": "b9d2a6f8-5c3e-4b1d-f7a9-8e4c2b5d1f3a",
      "address": "Storgade 15, 4180 Sorø, Denmark",
      "lat": 55.43399,
      "lng": 11.55835
    }
  ]
}
